{
"name":"Shufersal",
"city":"Tel-Aviv",
"lat":32.0421780,
"lon": 34.8490320
}
{
"name": "Shufersal",
"city": "Tel-Aviv",
"lat": 32.0421780,
"lon": 34.8490320
}
{
"name": "Shufersal",
"city": "Tel-Aviv",
"lat": 31.9546790,
"lon": 34.8689670
}
{
"name": "Rami Levi",
"city": "Tel-Aviv",
"lat": 32.1146850,
"lon": 34.9024960
}
{
"name": "Rami Levi",
"city": "Rishon Le-Zion",
"lat": 31.9644620,
"lon": 34.8180290
}
{
"name": "Shufersal",
"city": "Rishon Le-Zion",
"lat": 32.0445130,
"lon": 34.8013910
}
{
"name": "Mega",
"city": "Rishon Le-Zion",
"lat": 32.1172110,
"lon": 34.8198490
}
{
"name": "Mega",
"city": "Rishon Le-Zion",
"lat": 32.1345630,
"lon": 34.8013810
}
{
"name": "Mega",
"city": "Rishon Le-Zion",
"lat": 32.0069370,
"lon": 34.8477410
}
{
"name": "Mega",
"city": "Haifa",
"lat": 31.9512830,
"lon": 34.8473840
}
{
"name": "Rami Levi",
"city": "Haifa",
"lat": 32.1378300,
"lon": 34.9323550
}
{
"name": "Mega",
"city": "Haifa",
"lat": 32.0652070,
"lon": 34.8177120
}
{
"name": "Victory",
"city": "Haifa",
"lat": 31.9656350,
"lon": 34.8368750
}
{
"name": "Victory",
"city": "Holon",
"lat": 32.1094970,
"lon": 34.7971660
}
{
"name": "Rami Levi",
"city": "Holon",
"lat": 32.1198770,
"lon": 34.9080310
}
{
"name": "Victory",
"city": "Holon",
"lat": 31.9806920,
"lon": 34.8493410
}